HTTP/1.1 200 OK
Content-Type: application/json; charset=UTF-8
Date: Wed, 17 Jun 2015 00:26:06 GMT
Expires: Thu, 18 Jun 2015 00:26:06 GMT
Cache-Control: public, max-age=86400
Access-Control-Allow-Origin: *
Server: mafe
X-XSS-Protection: 1; mode=block
X-Frame-Options: SAMEORIGIN
Alternate-Protocol: 80:quic,p=0
Accept-Ranges: none
Vary: Accept-Language,Accept-Encoding
Transfer-Encoding: chunked

{
   "exclude_from_slo" : true,
   "results" : [
      {
         "address_components" : [
            {
               "long_name" : "3664-3780",
               "short_name" : "3664-3780",
               "types" : [ "street_number" ]
            },
            {
               "long_name" : "Braxton Common",
               "short_name" : "Braxton Common",
               "types" : [ "route" ]
            },
            {
               "long_name" : "Central District",
               "short_name" : "Central District",
               "types" : [ "neighborhood", "political" ]
            },
            {
               "long_name" : "Fremont",
               "short_name" : "Fremont",
               "types" : [ "locality", "political" ]
            },
            {
               "long_name" : "Alameda County",
               "short_name" : "Alameda County",
               "types" : [ "administrative_area_level_2", "political" ]
            },
            {
               "long_name" : "California",
               "short_name" : "CA",
               "types" : [ "administrative_area_level_1", "political" ]
            },
            {
               "long_name" : "United States",
               "short_name" : "US",
               "types" : [ "country", "political" ]
            },
            {
               "long_name" : "94538",
               "short_name" : "94538",
               "types" : [ "postal_code" ]
            },
            {
               "long_name" : "5427",
               "short_name" : "5427",
               "types" : [ "postal_code_suffix" ]
            }
         ],
         "formatted_address" : "3664-3780 Braxton Common, Fremont, CA 94538, USA",
         "geometry" : {
            "bounds" : {
               "northeast" : {
                  "lat" : 37.5460475,
                  "lng" : -121.9759243
               },
               "southwest" : {
                  "lat" : 37.5455701,
                  "lng" : -121.976424
               }
            },
            "location" : {
               "lat" : 37.5456723,
               "lng" : -121.9760963
            },
            "location_type" : "RANGE_INTERPOLATED",
            "viewport" : {
               "northeast" : {
                  "lat" : 37.5471577802915,
                  "lng" : -121.9748251697085
               },
               "southwest" : {
                  "lat" : 37.54445981970851,
                  "lng" : -121.9775231302915
               }
            }
         },
         "place_id" : "EjAzNjY0LTM3ODAgQnJheHRvbiBDb21tb24sIEZyZW1vbnQsIENBIDk0NTM4LCBVU0E",
         "types" : [ "street_address" ]
      },
      {
         "address_components" : [
            {
               "long_name" : "Central District",
               "short_name" : "Central District",
               "types" : [ "neighborhood", "political" ]
            },
            {
               "long_name" : "Fremont",
               "short_name" : "Fremont",
               "types" : [ "locality", "political" ]
            },
            {
               "long_name" : "Alameda County",
               "short_name" : "Alameda County",
               "types" : [ "administrative_area_level_2", "political" ]
            },
            {
               "long_name" : "California",
               "short_name" : "CA",
               "types" : [ "administrative_area_level_1", "political" ]
            },
            {
               "long_name" : "United States",
               "short_name" : "US",
               "types" : [ "country", "political" ]
            }
         ],
         "formatted_address" : "Central District, Fremont, CA, USA",
         "geometry" : {
            "bounds" : {
               "northeast" : {
                  "lat" : 37.560635,
                  "lng" : -121.9545698
               },
               "southwest" : {
                  "lat" : 37.53643599999999,
                  "lng" : -121.988471
               }
            },
            "location" : {
               "lat" : 37.5518666,
               "lng" : -121.977954
            },
            "location_type" : "APPROXIMATE",
            "viewport" : {
               "northeast" : {
                  "lat" : 37.560635,
                  "lng" : -121.9545698
               },
               "southwest" : {
                  "lat" : 37.53643599999999,
                  "lng" : -121.988471
               }
            }
         },
         "place_id" : "ChIJp5sC6pTAj4ARXvh5v_6SYbU",
         "types" : [ "neighborhood", "political" ]
      },
      {
         "address_components" : [
            {
               "long_name" : "Fremont",
               "short_name" : "Fremont",
               "types" : [ "locality", "political" ]
            },
            {
               "long_name" : "Alameda County",
               "short_name" : "Alameda County",
               "types" : [ "administrative_area_level_2", "political" ]
            },
            {
               "long_name" : "California",
               "short_name" : "CA",
               "types" : [ "administrative_area_level_1", "political" ]
            },
            {
               "long_name" : "United States",
               "short_name" : "US",
               "types" : [ "country", "political" ]
            }
         ],
         "formatted_address" : "Fremont, CA, USA",
         "geometry" : {
            "bounds" : {
               "northeast" : {
                  "lat" : 37.604234,
                  "lng" : -121.867767
               },
               "southwest" : {
                  "lat" : 37.4545388,
                  "lng" : -122.1301351
               }
            },
            "location" : {
               "lat" : 37.5482697,
               "lng" : -121.9885719
            },
            "location_type" : "APPROXIMATE",
            "viewport" : {
               "northeast" : {
                  "lat" : 37.604234,
                  "lng" : -121.867767
               },
               "southwest" : {
                  "lat" : 37.4545388,
                  "lng" : -122.1301351
               }
            }
         },
         "place_id" : "ChIJ98rot0a_j4AR1IjYiTsx2oo",
         "types" : [ "locality", "political" ]
      },
      {
         "address_components" : [
            {
               "long_name" : "94538",
               "short_name" : "94538",
               "types" : [ "postal_code" ]
            },
            {
               "long_name" : "Fremont",
               "short_name" : "Fremont",
               "types" : [ "locality", "political" ]
            },
            {
               "long_name" : "California",
               "short_name" : "CA",
               "types" : [ "administrative_area_level_1", "political" ]
            },
            {
               "long_name" : "United States",
               "short_name" : "US",
               "types" : [ "country", "political" ]
            }
         ],
         "formatted_address" : "Fremont, CA 94538, USA",
         "geometry" : {
            "bounds" : {
               "northeast" : {
                  "lat" : 37.565455,
                  "lng" : -121.917097
               },
               "southwest" : {
                  "lat" : 37.453235,
                  "lng" : -122.002236
               }
            },
            "location" : {
               "lat" : 37.5042267,
               "lng" : -121.9643745
            },
            "location_type" : "APPROXIMATE",
            "viewport" : {
               "northeast" : {
                  "lat" : 37.565455,
                  "lng" : -121.917097
               },
               "southwest" : {
                  "lat" : 37.453235,
                  "lng" : -122.002236
               }
            }
         },
         "place_id" : "ChIJWcvu2qO4j4ARpT5KSTkRc_0",
         "types" : [ "postal_code" ]
      },
      {
         "address_components" : [
            {
               "long_name" : "Alameda County",
               "short_name" : "Alameda County",
               "types" : [ "administrative_area_level_2", "political" ]
            },
            {
               "long_name" : "California",
               "short_name" : "CA",
               "types" : [ "administrative_area_level_1", "political" ]
            },
            {
               "long_name" : "United States",
               "short_name" : "US",
               "types" : [ "country", "political" ]
            }
         ],
         "formatted_address" : "Alameda County, CA, USA",
         "geometry" : {
            "bounds" : {
               "northeast" : {
                  "lat" : 37.9056681,
                  "lng" : -121.4692139
               },
               "southwest" : {
                  "lat" : 37.4545388,
                  "lng" : -122.3426648
               }
            },
            "location" : {
               "lat" : 37.6016892,
               "lng" : -121.7195459
            },
            "location_type" : "APPROXIMATE",
            "viewport" : {
               "northeast" : {
                  "lat" : 37.9056681,
                  "lng" : -121.4692139
               },
               "southwest" : {
                  "lat" : 37.4545388,
                  "lng" : -122.3426648
               }
            }
         },
         "place_id" : "ChIJWRd5NDfyj4ARc30TGxHHxmg",
         "types" : [ "administrative_area_level_2", "political" ]
      },
      {
         "address_components" : [
            {
               "long_name" : "California",
               "short_name" : "CA",
               "types" : [ "administrative_area_level_1", "political" ]
            },
            {
               "long_name" : "United States",
               "short_name" : "US",
               "types" : [ "country", "political" ]
            }
         ],
         "formatted_address" : "California, USA",
         "geometry" : {
            "bounds" : {
               "northeast" : {
                  "lat" : 42.0095169,
                  "lng" : -114.131211
               },
               "southwest" : {
                  "lat" : 32.5342321,
                  "lng" : -124.415165
               }
            },
            "location" : {
               "lat" : 36.778261,
               "lng" : -119.4179324
            },
            "location_type" : "APPROXIMATE",
            "viewport" : {
               "northeast" : {
                  "lat" : 42.0095169,
                  "lng" : -114.131211
               },
               "southwest" : {
                  "lat" : 32.5342321,
                  "lng" : -124.415165
               }
            }
         },
         "place_id" : "ChIJPV4oX_65j4ARVW8IJ6IJUYs",
         "types" : [ "administrative_area_level_1", "political" ]
      },
      {
         "address_components" : [
            {
               "long_name" : "United States",
               "short_name" : "US",
               "types" : [ "country", "political" ]
            }
         ],
         "formatted_address" : "United States",
         "geometry" : {
            "bounds" : {
               "northeast" : {
                  "lat" : 71.3867745,
                  "lng" : -66.885417
               },
               "southwest" : {
                  "lat" : 18.9110642,
                  "lng" : 172.4458955
               }
            },
            "location" : {
               "lat" : 37.09024,
               "lng" : -95.712891
            },
            "location_type" : "APPROXIMATE",
            "viewport" : {
               "northeast" : {
                  "lat" : 49.38,
                  "lng" : -66.94
               },
               "southwest" : {
                  "lat" : 25.82,
                  "lng" : -124.39
               }
            }
         },
         "place_id" : "ChIJCzYy5IS16lQRQrfeQ5K5Oxw",
         "types" : [ "country", "political" ]
      }
   ],
   "status" : "OK"
}
